[{"address":"942, 21st Main Road, 2nd Stage, Banashankari, Bangalore","name":"Jalsa","online_order":"Yes","book_table":"Yes","rate":"4.1/5","votes":775,"phone":"080 42297555\n+91 9743772233","location":"Banashankari","rest_type":"Casual Dining","dish_liked":"Pasta, Lunch Buffet, Masala Papad, Paneer Lajawab, Tomato Shorba, Dum Biryani, Sweet Corn Soup","cuisines":"North Indian, Mughlai, Chinese","approx_costfor_two_people":800,"listed_intype":"Buffet","listed_incity":"Banashankari"},{"address":"2nd Floor, 80 Feet Road, Near Big Bazaar, 6th Block, Kathriguppe, 3rd Stage, Banashankari, Bangalore","name":"Spice Elephant","online_order":"Yes","book_table":"No","rate":"4.1/5","votes":787,"phone":"080 41714161","location":"Banashankari","rest_type":"Casual Dining","dish_liked":"Momos, Lunch Buffet, Chocolate Nirvana, Thai Green Curry, Paneer Tikka, Dum Biryani, Chicken Biryani","cuisines":"Chinese, North Indian, Thai","approx_costfor_two_people":800,"listed_intype":"Buffet","listed_incity":"Banashankari"},{"address":"1112, Next to KIMS Medical College, 17th Cross, 2nd Stage, Banashankari, Bangalore","name":"San Churro Cafe","online_order":"Yes","book_table":"No","rate":"3.8/5","votes":918,"phone":"+91 9663487993","location":"Banashankari","rest_type":"Cafe, Casual Dining","dish_liked":"Churros, Cannelloni, Minestrone Soup, Hot Chocolate, Pink Sauce Pasta, Salsa, Veg Supreme Pizza","cuisines":"Cafe, Mexican, Italian","approx_costfor_two_people":800,"listed_intype":"Buffet","listed_incity":"Banashankari"},{"address":"1st Floor, Annakuteera, 3rd Stage, Banashankari, Bangalore","name":"Addhuri Udupi Bhojana","online_order":"No","book_table":"No","rate":"3.7/5","votes":88,"phone":"+91 9620009302","location":"Banashankari","rest_type":"Quick Bites","dish_liked":"Masala Dosa","cuisines":"South Indian, North Indian","approx_costfor_two_people":300,"listed_intype":"Buffet","listed_incity":"Banashankari"},{"address":"10, 3rd Floor, Lakshmi Associates, Gandhi Bazaar Main Road, Above Reliance Trends, Basavanagudi, Bangalore","name":"Grand Village","online_order":"No","book_table":"No","rate":"3.8/5","votes":166,"phone":"+91 8026612447\n+91 9901210005","location":"Basavanagudi","rest_type":"Casual Dining","dish_liked":"Panipuri, Gol Gappe","cuisines":"North Indian, Rajasthani","approx_costfor_two_people":600,"listed_intype":"Buffet","listed_incity":"Banashankari"},{"address":"37, 5-1, 4th Floor, Bosco Court, Gandhi Bazaar Main Road, Basavanagudi, Bangalore","name":"Timepass Dinner","online_order":"Yes","book_table":"No","rate":"3.8/5","votes":286,"phone":"+91 9980040002\n+91 9980063005","location":"Basavanagudi","rest_type":"Casual Dining","dish_liked":"Onion Rings, Pasta, Kadhai Paneer, Salads, Salad, Roti, Jeera Rice","cuisines":"North Indian","approx_costfor_two_people":600,"listed_intype":"Buffet","listed_incity":"Banashankari"},{"address":"19/1, New Timberyard Layout, Beside Satellite Bus Stop, Mysore Road, Bangalore","name":"Rosewood International Hotel - Bar & Restaurant","online_order":"No","book_table":"No","rate":"3.6/5","votes":8,"phone":"+91 9731716688\n080 26740366","location":"Mysore Road","rest_type":"Casual Dining","dish_liked":null,"cuisines":"North Indian, South Indian, Andhra, Chinese","approx_costfor_two_people":800,"listed_intype":"Buffet","listed_incity":"Banashankari"},{"address":"2469, 3rd Floor, 24th Cross, Opposite BDA Complex, 2nd Stage, Banashankari, Bangalore","name":"Onesta","online_order":"Yes","book_table":"Yes","rate":"4.6/5","votes":2556,"phone":"080 48653961\n080 48655715","location":"Banashankari","rest_type":"Casual Dining, Cafe","dish_liked":"Farmhouse Pizza, Chocolate Banana, Virgin Mojito, Pasta, Paneer Tikka, Lime Soda, Prawn Pizza","cuisines":"Pizza, Cafe, Italian","approx_costfor_two_people":600,"listed_intype":"Cafes","listed_incity":"Banashankari"},{"address":"1, 30th Main Road, 3rd Stage, Banashankari, Bangalore","name":"Penthouse Cafe","online_order":"Yes","book_table":"No","rate":"4.0/5","votes":324,"phone":"+91 8884135549\n+91 9449449316","location":"Banashankari","rest_type":"Cafe","dish_liked":"Pizza, Mocktails, Coffee, Nachos, Salad, Pasta, Sandwiches","cuisines":"Cafe, Italian, Continental","approx_costfor_two_people":700,"listed_intype":null,"listed_incity":null},{"address":"2470, 21 Main Road, 25th Cross, Banashankari, Bangalore","name":"Smacznego","online_order":"Yes","book_table":"No","rate":"4.2/5","votes":504,"phone":"+91 9945230807\n+91 9743804471","location":"Banashankari","rest_type":"Cafe","dish_liked":"Waffles, Pasta, Coleslaw Sandwich, Choco Waffle, Tacos, Momos, Cheese Nachos","cuisines":"Cafe, Mexican, Italian, Momos, Beverages","approx_costfor_two_people":550,"listed_intype":"Cafes","listed_incity":"Banashankari"},{"address":"12,29 Near PES University Back Gate, D'Souza Nagar, Hosakerehalli, 3rd Stage, Banashankari, Bangalore","name":"CafÃƒÂƒÃ‚ÂƒÃƒÂ‚Ã‚ÂƒÃƒÂƒÃ‚Â‚ÃƒÂ‚Ã‚ÂƒÃƒÂƒÃ‚ÂƒÃƒÂ‚Ã‚Â‚ÃƒÂƒÃ‚Â‚ÃƒÂ‚Ã‚Â© Down The Alley","online_order":"Yes","book_table":"No","rate":"4.1/5","votes":402,"phone":"080 26724489\n+91 7406048982","location":"Banashankari","rest_type":"Cafe","dish_liked":"Waffles, Pasta, Crispy Chicken, Honey Chilli Chicken, Sandwich, Coffee, Crepe","cuisines":"Cafe","approx_costfor_two_people":500,"listed_intype":"Cafes","listed_incity":"Banashankari"},{"address":"941, 3rd FLOOR, 21st Main, 22nd Cross, Banashankari 2nd stage, Opposite to BDA complex, Banashankari","name":"Cafe Shuffle","online_order":"Yes","book_table":"Yes","rate":"4.2/5","votes":150,"phone":"+91 9742166777","location":"Banashankari","rest_type":"Cafe","dish_liked":"Mocktails, Peri Fries, Lasagne, Pizza, Chicken Bbq Wings, Virgin Mojito, Nachos","cuisines":"Cafe, Italian, Continental","approx_costfor_two_people":600,"listed_intype":"Cafes","listed_incity":"Banashankari"},{"address":"6th Block, 3rd Stage, Banashankari, Bangalore","name":"The Coffee Shack","online_order":"Yes","book_table":"Yes","rate":"4.2/5","votes":164,"phone":"+91 9731644212","location":"Banashankari","rest_type":"Cafe","dish_liked":"Coffee, Spaghetti, Pancakes, Nachos, Pasta, Sandwich, Garlic Bread","cuisines":"Cafe, Chinese, Continental, Italian","approx_costfor_two_people":500,"listed_intype":"Cafes","listed_incity":"Banashankari"},{"address":"111, Sapphire Toys Building, 100 Feet Ring Road, Banashankari, Bangalore","name":"Caf-Eleven","online_order":"No","book_table":"No","rate":"4.0/5","votes":424,"phone":"080 49577715","location":"Banashankari","rest_type":"Cafe","dish_liked":"Sandwich, Omelette, Ice Tea, Virgin Mojito, Hot Chocolate, Pasta Arrabiata, Hazelnut Cappuccino","cuisines":"Cafe, Continental","approx_costfor_two_people":450,"listed_intype":"Cafes","listed_incity":"Banashankari"},{"address":"1112, Next to KIMS Medical College, 17th Cross, 2nd Stage, Banashankari, Bangalore","name":"San Churro Cafe","online_order":"Yes","book_table":"No","rate":"3.8/5","votes":918,"phone":"+91 9663487993","location":"Banashankari","rest_type":"Cafe, Casual Dining","dish_liked":"Churros, Cannelloni, Minestrone Soup, Hot Chocolate, Pink Sauce Pasta, Salsa, Veg Supreme Pizza","cuisines":"Cafe, Mexican, Italian","approx_costfor_two_people":800,"listed_intype":"Cafes","listed_incity":"Banashankari"},{"address":"2303, 21st Cross, K R Road, 2nd Stage, Banashankari, Bangalore","name":"Cafe Vivacity","online_order":"Yes","book_table":"No","rate":"3.8/5","votes":90,"phone":"080 26768182\n+91 9845704455","location":"Banashankari","rest_type":"Cafe","dish_liked":"Garlic Bread, Burgers, Sandwiches, Pizza, Hot Chocolate Fudge, Waffles, Potato Wedges","cuisines":"Cafe","approx_costfor_two_people":650,"listed_intype":"Cafes","listed_incity":"Banashankari"},{"address":"241, 4th Floor, 100 Feet Ring Road, Opposite Kamakya Theatre, Banashankari, Bangalore","name":"Catch-up-ino","online_order":"Yes","book_table":"No","rate":"3.9/5","votes":133,"phone":"+91 9972988038\n+91 9900121238","location":"Banashankari","rest_type":"Cafe","dish_liked":"Momos, Mushroom Bruschettas, Jalapeno Cheeseballs, Pasta, Red Velvet Shake, Red Velvet Milkshake, Maggi","cuisines":"Cafe, Fast Food, Continental, Chinese, Momos","approx_costfor_two_people":800,"listed_intype":"Cafes","listed_incity":"Banashankari"},{"address":"405, 24th Cross, 9th Main, 2nd Stage, Banashankari, Bangalore","name":"Kirthi's Biryani","online_order":"Yes","book_table":"No","rate":"3.8/5","votes":144,"phone":"080 26711554\n+91 9741406338","location":"Banashankari","rest_type":"Cafe","dish_liked":"Pasta, Gelato, Garlic Bread, Mojito, Nachos, Paneer Pizza, Mocktails","cuisines":"Chinese, Cafe, Italian","approx_costfor_two_people":700,"listed_intype":"Cafes","listed_incity":"Banashankari"},{"address":"504, CJ Venkata Das Road, Padmanabhangar, 2nd Stage, Banashankari, Bangalore","name":"T3H Cafe","online_order":"No","book_table":"No","rate":"3.9/5","votes":93,"phone":"+91 8884726600","location":"Banashankari","rest_type":"Cafe","dish_liked":"Cheese Maggi, Peri Peri Fries, Pasta Arrabiata","cuisines":"Cafe, Italian, American","approx_costfor_two_people":300,"listed_intype":"Cafes","listed_incity":"Banashankari"},{"address":"47, 48 &49, 3Rd Floor, 21st Main Road, 2nd Stage, Banashankari, Bangalore","name":"360 Atoms Restaurant And Cafe","online_order":"Yes","book_table":"No","rate":"3.1/5","votes":13,"phone":"+91 9880594520","location":"Banashankari","rest_type":"Cafe","dish_liked":null,"cuisines":"Cafe, Chinese, Continental, Italian","approx_costfor_two_people":400,"listed_intype":"Cafes","listed_incity":"Banashankari"},{"address":"146, 50 ft Road, 3rd Phase, 3rd Stage, Near Katriguppe Water Tank Circle, Banashankari, Bangalore","name":"The Vintage Cafe","online_order":"Yes","book_table":"No","rate":"3.0/5","votes":62,"phone":"+91 9880016665\n+91 8217311687","location":"Banashankari","rest_type":"Cafe","dish_liked":"Burgers, Caramel Milkshake, Iced Coffee, Iced Tea","cuisines":"Cafe, French, North Indian","approx_costfor_two_people":400,"listed_intype":"Cafes","listed_incity":"Banashankari"},{"address":"3353, 2nd Cross, Opposite Auden School, Hoskerehalli Cross, 3rd Stage, Banashankari, Bangalore","name":"Woodee Pizza","online_order":"Yes","book_table":"No","rate":"3.7/5","votes":180,"phone":"+91 7406822844","location":"Banashankari","rest_type":"Cafe","dish_liked":"Pizza, Garlic Bread","cuisines":"Cafe, Pizza, Fast Food, Beverages","approx_costfor_two_people":500,"listed_intype":"Cafes","listed_incity":"Banashankari"},{"address":"SRF Complex, Near BDA Complex, Kathreguppe Main Road, Banashankari, Bangalore","name":"Cafe Coffee Day","online_order":"No","book_table":"No","rate":"3.6/5","votes":28,"phone":"080 32486296","location":"Banashankari","rest_type":"Cafe","dish_liked":null,"cuisines":"Cafe, Fast Food","approx_costfor_two_people":900,"listed_intype":"Cafes","listed_incity":"Banashankari"},{"address":"224/Y, 4th Phase, 7th Block, 100 Feet Ring Road, Near Kamakya Theatre, Banashankari, Bangalore","name":"My Tea House","online_order":"Yes","book_table":"No","rate":"3.6/5","votes":62,"phone":"080 65975430\n+91 7337733798","location":"Banashankari","rest_type":"Quick Bites, Cafe","dish_liked":"Pasta, Iced Tea","cuisines":"Italian, Fast Food, Cafe, European","approx_costfor_two_people":600,"listed_intype":"Cafes","listed_incity":"Banashankari"},{"address":"775/1, Opposite Gupta Collage, 7th Block, 3rd Stage, Banashankari, Bangalore","name":"Hide Out Cafe","online_order":"No","book_table":"No","rate":"3.7/5","votes":31,"phone":"+91 9901481185","location":"Banashankari","rest_type":"Cafe","dish_liked":null,"cuisines":"Cafe","approx_costfor_two_people":300,"listed_intype":"Cafes","listed_incity":"Banashankari"},{"address":"101, Water Tank Road, 2nd Block, 3rd Stage, Banashankari, Bangalore","name":"CAFE NOVA","online_order":"No","book_table":"No","rate":"3.2/5","votes":11,"phone":"+91 8971090261","location":"Banashankari","rest_type":"Cafe","dish_liked":null,"cuisines":"Cafe, Bakery","approx_costfor_two_people":600,"listed_intype":"Cafes","listed_incity":"Banashankari"},{"address":"27th Cross Rd, Banashankari Stage II, Banashankari, Bangalore","name":"Coffee Tindi","online_order":"Yes","book_table":"No","rate":"3.8/5","votes":75,"phone":"+91 9945758046","location":"Banashankari","rest_type":"Cafe, Quick Bites","dish_liked":null,"cuisines":"Cafe, South Indian","approx_costfor_two_people":200,"listed_intype":"Cafes","listed_incity":"Banashankari"},{"address":"1036, Srinidhi Plaza, 3rd floor, Above Nilgiris, Stage 2, Banashankari, Bangalore","name":"Sea Green Cafe","online_order":"No","book_table":"No","rate":"3.3/5","votes":4,"phone":"+91 9008628448","location":"Banashankari","rest_type":"Cafe","dish_liked":null,"cuisines":"Cafe, Fast Food, Beverages","approx_costfor_two_people":500,"listed_intype":"Cafes","listed_incity":"Banashankari"},{"address":"940, Shantha Complex, 20th Main, 2nd Stage, Banashankari, Bangalore","name":"Cuppa","online_order":"No","book_table":"No","rate":"3.3/5","votes":23,"phone":"+91 9591111123","location":"Banashankari","rest_type":"Cafe","dish_liked":null,"cuisines":"Cafe, Fast Food","approx_costfor_two_people":550,"listed_intype":"Cafes","listed_incity":"Banashankari"},{"address":"112, Bull Temple Road,next to more Basavanagudi, Bangalore","name":"Srinathji's Cafe","online_order":"No","book_table":"No","rate":"3.8/5","votes":148,"phone":"080 26600704\n+91 9342593424","location":"Basavanagudi","rest_type":"Casual Dining, Cafe","dish_liked":"Paratha, Sandwich, Chilli Idli, Noodles, Sandwiches, Lime Soda","cuisines":"North Indian, Cafe, Chinese, Fast Food","approx_costfor_two_people":550,"listed_intype":"Cafes","listed_incity":"Banashankari"},{"address":"30, Surveyor Street, DVG Road, Basavanagudi, Bangalore","name":"Redberrys","online_order":"Yes","book_table":"No","rate":"4.0/5","votes":219,"phone":"+91 9148421256","location":"Basavanagudi","rest_type":"Cafe","dish_liked":"Pizza, Fries, Anjeer Ice Cream, Sandwiches, Gelato, Burgers, Kesar Badam","cuisines":"Cafe, Italian","approx_costfor_two_people":600,"listed_intype":"Cafes","listed_incity":"Banashankari"},{"address":"2/1, 7th Main, Dwarakangar, Hosakeregalli, Banashankari, Bangalore","name":"Foodiction","online_order":"Yes","book_table":"No","rate":"2.8/5","votes":506,"phone":"+91 9916107070","location":"Banashankari","rest_type":"Quick Bites","dish_liked":"Burgers, Lassi, Chicken Grill, Naan, Momos, Chicken Burger, Biryani","cuisines":"North Indian, Fast Food, Chinese, Burger","approx_costfor_two_people":500,"listed_intype":null,"listed_incity":null},{"address":"101 Ground Floor, Manjunatha Complex, 22nd Main Road, Banashankari, Bangalore","name":"Sweet Truth","online_order":"Yes","book_table":"No","rate":"3.9/5","votes":35,"phone":"+91 7710055553","location":"Banashankari","rest_type":"Delivery","dish_liked":null,"cuisines":"Bakery, Desserts","approx_costfor_two_people":500,"listed_intype":"Delivery","listed_incity":"Banashankari"},{"address":"101, Ground Floor, Manjunatha Complex, 22nd Main Road, 2nd Stage, Banashankari, Bangalore","name":"Ovenstory Pizza","online_order":"Yes","book_table":"No","rate":"3.9/5","votes":172,"phone":"+91 7738383000","location":"Banashankari","rest_type":"Delivery","dish_liked":"Paneer Tikka, Garlic Bread, Thin Crust Pizza, Falafel, Veggie Pizza","cuisines":"Pizza","approx_costfor_two_people":750,"listed_intype":"Delivery","listed_incity":"Banashankari"},{"address":"80, BDA Complex, 2nd Stage, Banashankari, Bangalore","name":"Faasos","online_order":"Yes","book_table":"No","rate":"4.2/5","votes":415,"phone":"+91 7700020020","location":"Banashankari","rest_type":"Quick Bites","dish_liked":"Rolls, Veggie Wrap, Chocolate Fantasy, Rice Bowls, Chicken Rice, Paneer Makhanwala, Chicken Tikka Wrap","cuisines":"North Indian, Biryani, Fast Food","approx_costfor_two_people":500,"listed_intype":"Delivery","listed_incity":"Banashankari"},{"address":"101, Ground Floor, Manjunatha Complex, 22nd Main Road, 2nd Stage, Banashankari, Bangalore","name":"Behrouz Biryani","online_order":"Yes","book_table":"No","rate":"3.9/5","votes":230,"phone":"+91 7022260661\n+91 7022260662","location":"Banashankari","rest_type":"Delivery","dish_liked":"Raita, Gulab Jamun, Paneer Biryani, Vegetable Biryani, Gosht Dum Biryani, Chicken Biryani, Murgh Biryani","cuisines":"Biryani","approx_costfor_two_people":650,"listed_intype":"Delivery","listed_incity":"Banashankari"},{"address":"32, 7th Main Road, Dwaraka Nagar,Near PES College, Banashankari, Bangalore","name":"Fast And Fresh","online_order":"Yes","book_table":"No","rate":"2.8/5","votes":91,"phone":"+91 9742974232","location":"Banashankari","rest_type":"Quick Bites","dish_liked":null,"cuisines":"North Indian, Chinese, Fast Food","approx_costfor_two_people":400,"listed_intype":"Delivery","listed_incity":"Banashankari"},{"address":"8, 2nd Floor, 1st Main, Arush Trapeze, Mount Joy Road, Behind BMS College of Engineering, Hanumanthnagar, Banashankari, Bangalore","name":"Szechuan Dragon","online_order":"Yes","book_table":"No","rate":"4.2/5","votes":1647,"phone":"00 919663567711\n+91 9916326323","location":"Banashankari","rest_type":"Casual Dining","dish_liked":"Noodles, Momos, Veg Manchow Soup, Kung Pao Chicken, Chicken Lollipop, Chop Suey, Dragon Chicken","cuisines":"Chinese, Thai, Momos","approx_costfor_two_people":600,"listed_intype":"Delivery","listed_incity":"Banashankari"},{"address":"4, Opposite NMKRV College, 21st C Cross Road, 3rd Block, Jayanagar, Bangalore","name":"Empire Restaurant","online_order":"Yes","book_table":"No","rate":"4.4/5","votes":4884,"phone":"080 49653266","location":"Jayanagar","rest_type":"Casual Dining","dish_liked":"Chicken Tikka Masala, Mutton Keema Dosa, Mutton Biryani, Raan Biryani, Brain Fry, Chicken Grill, Ghee Rice","cuisines":"North Indian, Mughlai, South Indian, Chinese","approx_costfor_two_people":750,"listed_intype":"Delivery","listed_incity":"Banashankari"},{"address":"556/A, Water Tank Road, 3rd Stage, Banashankari, Bangalore","name":"Maruthi Davangere Benne Dosa","online_order":"Yes","book_table":"No","rate":"4.0/5","votes":17,"phone":"+91 9019563485","location":"Banashankari","rest_type":"Quick Bites","dish_liked":null,"cuisines":"South Indian","approx_costfor_two_people":150,"listed_intype":"Delivery","listed_incity":"Banashankari"},{"address":"39, 3rd Main,4th Cross, Hanumanth Nagar, Near, Basavanagudi, Bangalore","name":"Chaatimes","online_order":"Yes","book_table":"No","rate":"3.8/5","votes":133,"phone":"+91 8884232233","location":"Basavanagudi","rest_type":"Quick Bites","dish_liked":"Dabeli, Faluda, Masala Poori, Sandwiches, Tokri Chaat, Pav Bhaji, Dahipuri","cuisines":"Street Food, Fast Food","approx_costfor_two_people":200,"listed_intype":"Delivery","listed_incity":"Banashankari"},{"address":"Opp Vinayaka hospital, Near Seetha Circle , 80 Feet Road, Banashankari, Bangalore","name":"Havyaka Mess","online_order":"No","book_table":"No","rate":"3.9/5","votes":28,"phone":"+91 9243195843\n+91 9243404670","location":"Banashankari","rest_type":"Mess","dish_liked":null,"cuisines":"South Indian","approx_costfor_two_people":300,"listed_intype":"Delivery","listed_incity":"Banashankari"},{"address":"2466, Bhaskar Grand Tower, 24th Cross, Opposite BDA Complex, Banashankari, Bangalore","name":"McDonald's","online_order":"Yes","book_table":"No","rate":"3.9/5","votes":286,"phone":"080 66000666\n080 42005285","location":"Banashankari","rest_type":"Quick Bites","dish_liked":"Burgers, Fries, Hot Chocolate","cuisines":"Burger, Fast Food","approx_costfor_two_people":500,"listed_intype":"Delivery","listed_incity":"Banashankari"},{"address":"645, 1st Floor, 24th Cross, 24th Main, 2nd Stage, Banashankari, Bangalore","name":"Domino's Pizza","online_order":"Yes","book_table":"No","rate":"3.9/5","votes":540,"phone":"080 26710070\n18602100000","location":"Banashankari","rest_type":"Quick Bites","dish_liked":"Pane Pizza, Lava Cake, Pasta, Stuffed Garlic Bread, Chocolava Cake, Tacos","cuisines":"Pizza, Fast Food","approx_costfor_two_people":800,"listed_intype":"Delivery","listed_incity":"Banashankari"},{"address":"2469, 3rd Floor, 24th Cross, Opposite BDA Complex, 2nd Stage, Banashankari, Bangalore","name":"Onesta","online_order":"Yes","book_table":"Yes","rate":"4.6/5","votes":2556,"phone":"080 48653961\n080 48655715","location":"Banashankari","rest_type":"Casual Dining, Cafe","dish_liked":"Farmhouse Pizza, Chocolate Banana, Virgin Mojito, Pasta, Paneer Tikka, Lime Soda, Prawn Pizza","cuisines":"Pizza, Cafe, Italian","approx_costfor_two_people":600,"listed_intype":"Delivery","listed_incity":"Banashankari"},{"address":"942, 21st Main Road, 2nd Stage, Banashankari, Bangalore","name":"Jalsa","online_order":"Yes","book_table":"Yes","rate":"4.1/5","votes":775,"phone":"080 42297555\n+91 9743772233","location":"Banashankari","rest_type":"Casual Dining","dish_liked":"Pasta, Lunch Buffet, Masala Papad, Paneer Lajawab, Tomato Shorba, Dum Biryani, Sweet Corn Soup","cuisines":"North Indian, Mughlai, Chinese","approx_costfor_two_people":800,"listed_intype":"Buffet","listed_incity":"Banashankari"},{"address":"2nd Floor, 80 Feet Road, Near Big Bazaar, 6th Block, Kathriguppe, 3rd Stage, Banashankari, Bangalore","name":"Spice Elephant","online_order":"Yes","book_table":"No","rate":"4.1/5","votes":787,"phone":"080 41714161","location":"Banashankari","rest_type":"Casual Dining","dish_liked":"Momos, Lunch Buffet, Chocolate Nirvana, Thai Green Curry, Paneer Tikka, Dum Biryani, Chicken Biryani","cuisines":"Chinese, North Indian, Thai","approx_costfor_two_people":800,"listed_intype":"Buffet","listed_incity":"Banashankari"},{"address":"1112, Next to KIMS Medical College, 17th Cross, 2nd Stage, Banashankari, Bangalore","name":"San Churro Cafe","online_order":"Yes","book_table":"No","rate":"3.8/5","votes":918,"phone":"+91 9663487993","location":"Banashankari","rest_type":"Cafe, Casual Dining","dish_liked":"Churros, Cannelloni, Minestrone Soup, Hot Chocolate, Pink Sauce Pasta, Salsa, Veg Supreme Pizza","cuisines":"Cafe, Mexican, Italian","approx_costfor_two_people":800,"listed_intype":"Buffet","listed_incity":"Banashankari"},{"address":"1st Floor, Annakuteera, 3rd Stage, Banashankari, Bangalore","name":"Addhuri Udupi Bhojana","online_order":"No","book_table":"No","rate":"3.7/5","votes":88,"phone":"+91 9620009302","location":"Banashankari","rest_type":"Quick Bites","dish_liked":"Masala Dosa","cuisines":"South Indian, North Indian","approx_costfor_two_people":300,"listed_intype":"Buffet","listed_incity":"Banashankari"},{"address":"10, 3rd Floor, Lakshmi Associates, Gandhi Bazaar Main Road, Above Reliance Trends, Basavanagudi, Bangalore","name":"Grand Village","online_order":"No","book_table":"No","rate":"3.8/5","votes":166,"phone":"+91 8026612447\n+91 9901210005","location":"Basavanagudi","rest_type":"Casual Dining","dish_liked":"Panipuri, Gol Gappe","cuisines":"North Indian, Rajasthani","approx_costfor_two_people":600,"listed_intype":"Buffet","listed_incity":"Banashankari"},{"address":"37, 5-1, 4th Floor, Bosco Court, Gandhi Bazaar Main Road, Basavanagudi, Bangalore","name":"Timepass Dinner","online_order":"Yes","book_table":"No","rate":"3.8/5","votes":286,"phone":"+91 9980040002\n+91 9980063005","location":"Basavanagudi","rest_type":"Casual Dining","dish_liked":"Onion Rings, Pasta, Kadhai Paneer, Salads, Salad, Roti, Jeera Rice","cuisines":"North Indian","approx_costfor_two_people":600,"listed_intype":"Buffet","listed_incity":"Banashankari"},{"address":"19/1, New Timberyard Layout, Beside Satellite Bus Stop, Mysore Road, Bangalore","name":"Rosewood International Hotel - Bar & Restaurant","online_order":"No","book_table":"No","rate":"3.6/5","votes":8,"phone":"+91 9731716688\n080 26740366","location":"Mysore Road","rest_type":"Casual Dining","dish_liked":null,"cuisines":"North Indian, South Indian, Andhra, Chinese","approx_costfor_two_people":800,"listed_intype":"Buffet","listed_incity":"Banashankari"},{"address":"2469, 3rd Floor, 24th Cross, Opposite BDA Complex, 2nd Stage, Banashankari, Bangalore","name":"Onesta","online_order":"Yes","book_table":"Yes","rate":"4.6/5","votes":2556,"phone":"080 48653961\n080 48655715","location":"Banashankari","rest_type":"Casual Dining, Cafe","dish_liked":"Farmhouse Pizza, Chocolate Banana, Virgin Mojito, Pasta, Paneer Tikka, Lime Soda, Prawn Pizza","cuisines":"Pizza, Cafe, Italian","approx_costfor_two_people":600,"listed_intype":"Cafes","listed_incity":"Banashankari"},{"address":"1, 30th Main Road, 3rd Stage, Banashankari, Bangalore","name":"Penthouse Cafe","online_order":"Yes","book_table":"No","rate":"4.0/5","votes":324,"phone":"+91 8884135549\n+91 9449449316","location":"Banashankari","rest_type":"Cafe","dish_liked":"Pizza, Mocktails, Coffee, Nachos, Salad, Pasta, Sandwiches","cuisines":"Cafe, Italian, Continental","approx_costfor_two_people":700,"listed_intype":null,"listed_incity":null},{"address":"2470, 21 Main Road, 25th Cross, Banashankari, Bangalore","name":"Smacznego","online_order":"Yes","book_table":"No","rate":"4.2/5","votes":504,"phone":"+91 9945230807\n+91 9743804471","location":"Banashankari","rest_type":"Cafe","dish_liked":"Waffles, Pasta, Coleslaw Sandwich, Choco Waffle, Tacos, Momos, Cheese Nachos","cuisines":"Cafe, Mexican, Italian, Momos, Beverages","approx_costfor_two_people":550,"listed_intype":"Cafes","listed_incity":"Banashankari"},{"address":"12,29 Near PES University Back Gate, D'Souza Nagar, Hosakerehalli, 3rd Stage, Banashankari, Bangalore","name":"CafÃƒÂƒÃ‚ÂƒÃƒÂ‚Ã‚ÂƒÃƒÂƒÃ‚Â‚ÃƒÂ‚Ã‚ÂƒÃƒÂƒÃ‚ÂƒÃƒÂ‚Ã‚Â‚ÃƒÂƒÃ‚Â‚ÃƒÂ‚Ã‚Â© Down The Alley","online_order":"Yes","book_table":"No","rate":"4.1/5","votes":402,"phone":"080 26724489\n+91 7406048982","location":"Banashankari","rest_type":"Cafe","dish_liked":"Waffles, Pasta, Crispy Chicken, Honey Chilli Chicken, Sandwich, Coffee, Crepe","cuisines":"Cafe","approx_costfor_two_people":500,"listed_intype":"Cafes","listed_incity":"Banashankari"},{"address":"941, 3rd FLOOR, 21st Main, 22nd Cross, Banashankari 2nd stage, Opposite to BDA complex, Banashankari","name":"Cafe Shuffle","online_order":"Yes","book_table":"Yes","rate":"4.2/5","votes":150,"phone":"+91 9742166777","location":"Banashankari","rest_type":"Cafe","dish_liked":"Mocktails, Peri Fries, Lasagne, Pizza, Chicken Bbq Wings, Virgin Mojito, Nachos","cuisines":"Cafe, Italian, Continental","approx_costfor_two_people":600,"listed_intype":"Cafes","listed_incity":"Banashankari"},{"address":"6th Block, 3rd Stage, Banashankari, Bangalore","name":"The Coffee Shack","online_order":"Yes","book_table":"Yes","rate":"4.2/5","votes":164,"phone":"+91 9731644212","location":"Banashankari","rest_type":"Cafe","dish_liked":"Coffee, Spaghetti, Pancakes, Nachos, Pasta, Sandwich, Garlic Bread","cuisines":"Cafe, Chinese, Continental, Italian","approx_costfor_two_people":500,"listed_intype":"Cafes","listed_incity":"Banashankari"},{"address":"111, Sapphire Toys Building, 100 Feet Ring Road, Banashankari, Bangalore","name":"Caf-Eleven","online_order":"No","book_table":"No","rate":"4.0/5","votes":424,"phone":"080 49577715","location":"Banashankari","rest_type":"Cafe","dish_liked":"Sandwich, Omelette, Ice Tea, Virgin Mojito, Hot Chocolate, Pasta Arrabiata, Hazelnut Cappuccino","cuisines":"Cafe, Continental","approx_costfor_two_people":450,"listed_intype":"Cafes","listed_incity":"Banashankari"},{"address":"1112, Next to KIMS Medical College, 17th Cross, 2nd Stage, Banashankari, Bangalore","name":"San Churro Cafe","online_order":"Yes","book_table":"No","rate":"3.8/5","votes":918,"phone":"+91 9663487993","location":"Banashankari","rest_type":"Cafe, Casual Dining","dish_liked":"Churros, Cannelloni, Minestrone Soup, Hot Chocolate, Pink Sauce Pasta, Salsa, Veg Supreme Pizza","cuisines":"Cafe, Mexican, Italian","approx_costfor_two_people":800,"listed_intype":"Cafes","listed_incity":"Banashankari"},{"address":"2303, 21st Cross, K R Road, 2nd Stage, Banashankari, Bangalore","name":"Cafe Vivacity","online_order":"Yes","book_table":"No","rate":"3.8/5","votes":90,"phone":"080 26768182\n+91 9845704455","location":"Banashankari","rest_type":"Cafe","dish_liked":"Garlic Bread, Burgers, Sandwiches, Pizza, Hot Chocolate Fudge, Waffles, Potato Wedges","cuisines":"Cafe","approx_costfor_two_people":650,"listed_intype":"Cafes","listed_incity":"Banashankari"},{"address":"241, 4th Floor, 100 Feet Ring Road, Opposite Kamakya Theatre, Banashankari, Bangalore","name":"Catch-up-ino","online_order":"Yes","book_table":"No","rate":"3.9/5","votes":133,"phone":"+91 9972988038\n+91 9900121238","location":"Banashankari","rest_type":"Cafe","dish_liked":"Momos, Mushroom Bruschettas, Jalapeno Cheeseballs, Pasta, Red Velvet Shake, Red Velvet Milkshake, Maggi","cuisines":"Cafe, Fast Food, Continental, Chinese, Momos","approx_costfor_two_people":800,"listed_intype":"Cafes","listed_incity":"Banashankari"},{"address":"405, 24th Cross, 9th Main, 2nd Stage, Banashankari, Bangalore","name":"Kirthi's Biryani","online_order":"Yes","book_table":"No","rate":"3.8/5","votes":144,"phone":"080 26711554\n+91 9741406338","location":"Banashankari","rest_type":"Cafe","dish_liked":"Pasta, Gelato, Garlic Bread, Mojito, Nachos, Paneer Pizza, Mocktails","cuisines":"Chinese, Cafe, Italian","approx_costfor_two_people":700,"listed_intype":"Cafes","listed_incity":"Banashankari"},{"address":"504, CJ Venkata Das Road, Padmanabhangar, 2nd Stage, Banashankari, Bangalore","name":"T3H Cafe","online_order":"No","book_table":"No","rate":"3.9/5","votes":93,"phone":"+91 8884726600","location":"Banashankari","rest_type":"Cafe","dish_liked":"Cheese Maggi, Peri Peri Fries, Pasta Arrabiata","cuisines":"Cafe, Italian, American","approx_costfor_two_people":300,"listed_intype":"Cafes","listed_incity":"Banashankari"},{"address":"47, 48 &49, 3Rd Floor, 21st Main Road, 2nd Stage, Banashankari, Bangalore","name":"360 Atoms Restaurant And Cafe","online_order":"Yes","book_table":"No","rate":"3.1/5","votes":13,"phone":"+91 9880594520","location":"Banashankari","rest_type":"Cafe","dish_liked":null,"cuisines":"Cafe, Chinese, Continental, Italian","approx_costfor_two_people":400,"listed_intype":"Cafes","listed_incity":"Banashankari"},{"address":"146, 50 ft Road, 3rd Phase, 3rd Stage, Near Katriguppe Water Tank Circle, Banashankari, Bangalore","name":"The Vintage Cafe","online_order":"Yes","book_table":"No","rate":"3.0/5","votes":62,"phone":"+91 9880016665\n+91 8217311687","location":"Banashankari","rest_type":"Cafe","dish_liked":"Burgers, Caramel Milkshake, Iced Coffee, Iced Tea","cuisines":"Cafe, French, North Indian","approx_costfor_two_people":400,"listed_intype":"Cafes","listed_incity":"Banashankari"},{"address":"3353, 2nd Cross, Opposite Auden School, Hoskerehalli Cross, 3rd Stage, Banashankari, Bangalore","name":"Woodee Pizza","online_order":"Yes","book_table":"No","rate":"3.7/5","votes":180,"phone":"+91 7406822844","location":"Banashankari","rest_type":"Cafe","dish_liked":"Pizza, Garlic Bread","cuisines":"Cafe, Pizza, Fast Food, Beverages","approx_costfor_two_people":500,"listed_intype":"Cafes","listed_incity":"Banashankari"},{"address":"SRF Complex, Near BDA Complex, Kathreguppe Main Road, Banashankari, Bangalore","name":"Cafe Coffee Day","online_order":"No","book_table":"No","rate":"3.6/5","votes":28,"phone":"080 32486296","location":"Banashankari","rest_type":"Cafe","dish_liked":null,"cuisines":"Cafe, Fast Food","approx_costfor_two_people":900,"listed_intype":"Cafes","listed_incity":"Banashankari"},{"address":"224/Y, 4th Phase, 7th Block, 100 Feet Ring Road, Near Kamakya Theatre, Banashankari, Bangalore","name":"My Tea House","online_order":"Yes","book_table":"No","rate":"3.6/5","votes":62,"phone":"080 65975430\n+91 7337733798","location":"Banashankari","rest_type":"Quick Bites, Cafe","dish_liked":"Pasta, Iced Tea","cuisines":"Italian, Fast Food, Cafe, European","approx_costfor_two_people":600,"listed_intype":"Cafes","listed_incity":"Banashankari"},{"address":"775/1, Opposite Gupta Collage, 7th Block, 3rd Stage, Banashankari, Bangalore","name":"Hide Out Cafe","online_order":"No","book_table":"No","rate":"3.7/5","votes":31,"phone":"+91 9901481185","location":"Banashankari","rest_type":"Cafe","dish_liked":null,"cuisines":"Cafe","approx_costfor_two_people":300,"listed_intype":"Cafes","listed_incity":"Banashankari"},{"address":"101, Water Tank Road, 2nd Block, 3rd Stage, Banashankari, Bangalore","name":"CAFE NOVA","online_order":"No","book_table":"No","rate":"3.2/5","votes":11,"phone":"+91 8971090261","location":"Banashankari","rest_type":"Cafe","dish_liked":null,"cuisines":"Cafe, Bakery","approx_costfor_two_people":600,"listed_intype":"Cafes","listed_incity":"Banashankari"},{"address":"27th Cross Rd, Banashankari Stage II, Banashankari, Bangalore","name":"Coffee Tindi","online_order":"Yes","book_table":"No","rate":"3.8/5","votes":75,"phone":"+91 9945758046","location":"Banashankari","rest_type":"Cafe, Quick Bites","dish_liked":null,"cuisines":"Cafe, South Indian","approx_costfor_two_people":200,"listed_intype":"Cafes","listed_incity":"Banashankari"},{"address":"1036, Srinidhi Plaza, 3rd floor, Above Nilgiris, Stage 2, Banashankari, Bangalore","name":"Sea Green Cafe","online_order":"No","book_table":"No","rate":"3.3/5","votes":4,"phone":"+91 9008628448","location":"Banashankari","rest_type":"Cafe","dish_liked":null,"cuisines":"Cafe, Fast Food, Beverages","approx_costfor_two_people":500,"listed_intype":"Cafes","listed_incity":"Banashankari"},{"address":"940, Shantha Complex, 20th Main, 2nd Stage, Banashankari, Bangalore","name":"Cuppa","online_order":"No","book_table":"No","rate":"3.3/5","votes":23,"phone":"+91 9591111123","location":"Banashankari","rest_type":"Cafe","dish_liked":null,"cuisines":"Cafe, Fast Food","approx_costfor_two_people":550,"listed_intype":"Cafes","listed_incity":"Banashankari"},{"address":"112, Bull Temple Road,next to more Basavanagudi, Bangalore","name":"Srinathji's Cafe","online_order":"No","book_table":"No","rate":"3.8/5","votes":148,"phone":"080 26600704\n+91 9342593424","location":"Basavanagudi","rest_type":"Casual Dining, Cafe","dish_liked":"Paratha, Sandwich, Chilli Idli, Noodles, Sandwiches, Lime Soda","cuisines":"North Indian, Cafe, Chinese, Fast Food","approx_costfor_two_people":550,"listed_intype":"Cafes","listed_incity":"Banashankari"},{"address":"30, Surveyor Street, DVG Road, Basavanagudi, Bangalore","name":"Redberrys","online_order":"Yes","book_table":"No","rate":"4.0/5","votes":219,"phone":"+91 9148421256","location":"Basavanagudi","rest_type":"Cafe","dish_liked":"Pizza, Fries, Anjeer Ice Cream, Sandwiches, Gelato, Burgers, Kesar Badam","cuisines":"Cafe, Italian","approx_costfor_two_people":600,"listed_intype":"Cafes","listed_incity":"Banashankari"},{"address":"2/1, 7th Main, Dwarakangar, Hosakeregalli, Banashankari, Bangalore","name":"Foodiction","online_order":"Yes","book_table":"No","rate":"2.8/5","votes":506,"phone":"+91 9916107070","location":"Banashankari","rest_type":"Quick Bites","dish_liked":"Burgers, Lassi, Chicken Grill, Naan, Momos, Chicken Burger, Biryani","cuisines":"North Indian, Fast Food, Chinese, Burger","approx_costfor_two_people":500,"listed_intype":null,"listed_incity":null},{"address":"101 Ground Floor, Manjunatha Complex, 22nd Main Road, Banashankari, Bangalore","name":"Sweet Truth","online_order":"Yes","book_table":"No","rate":"3.9/5","votes":35,"phone":"+91 7710055553","location":"Banashankari","rest_type":"Delivery","dish_liked":null,"cuisines":"Bakery, Desserts","approx_costfor_two_people":500,"listed_intype":"Delivery","listed_incity":"Banashankari"},{"address":"101, Ground Floor, Manjunatha Complex, 22nd Main Road, 2nd Stage, Banashankari, Bangalore","name":"Ovenstory Pizza","online_order":"Yes","book_table":"No","rate":"3.9/5","votes":172,"phone":"+91 7738383000","location":"Banashankari","rest_type":"Delivery","dish_liked":"Paneer Tikka, Garlic Bread, Thin Crust Pizza, Falafel, Veggie Pizza","cuisines":"Pizza","approx_costfor_two_people":750,"listed_intype":"Delivery","listed_incity":"Banashankari"},{"address":"80, BDA Complex, 2nd Stage, Banashankari, Bangalore","name":"Faasos","online_order":"Yes","book_table":"No","rate":"4.2/5","votes":415,"phone":"+91 7700020020","location":"Banashankari","rest_type":"Quick Bites","dish_liked":"Rolls, Veggie Wrap, Chocolate Fantasy, Rice Bowls, Chicken Rice, Paneer Makhanwala, Chicken Tikka Wrap","cuisines":"North Indian, Biryani, Fast Food","approx_costfor_two_people":500,"listed_intype":"Delivery","listed_incity":"Banashankari"},{"address":"101, Ground Floor, Manjunatha Complex, 22nd Main Road, 2nd Stage, Banashankari, Bangalore","name":"Behrouz Biryani","online_order":"Yes","book_table":"No","rate":"3.9/5","votes":230,"phone":"+91 7022260661\n+91 7022260662","location":"Banashankari","rest_type":"Delivery","dish_liked":"Raita, Gulab Jamun, Paneer Biryani, Vegetable Biryani, Gosht Dum Biryani, Chicken Biryani, Murgh Biryani","cuisines":"Biryani","approx_costfor_two_people":650,"listed_intype":"Delivery","listed_incity":"Banashankari"},{"address":"32, 7th Main Road, Dwaraka Nagar,Near PES College, Banashankari, Bangalore","name":"Fast And Fresh","online_order":"Yes","book_table":"No","rate":"2.8/5","votes":91,"phone":"+91 9742974232","location":"Banashankari","rest_type":"Quick Bites","dish_liked":null,"cuisines":"North Indian, Chinese, Fast Food","approx_costfor_two_people":400,"listed_intype":"Delivery","listed_incity":"Banashankari"},{"address":"8, 2nd Floor, 1st Main, Arush Trapeze, Mount Joy Road, Behind BMS College of Engineering, Hanumanthnagar, Banashankari, Bangalore","name":"Szechuan Dragon","online_order":"Yes","book_table":"No","rate":"4.2/5","votes":1647,"phone":"00 919663567711\n+91 9916326323","location":"Banashankari","rest_type":"Casual Dining","dish_liked":"Noodles, Momos, Veg Manchow Soup, Kung Pao Chicken, Chicken Lollipop, Chop Suey, Dragon Chicken","cuisines":"Chinese, Thai, Momos","approx_costfor_two_people":600,"listed_intype":"Delivery","listed_incity":"Banashankari"},{"address":"4, Opposite NMKRV College, 21st C Cross Road, 3rd Block, Jayanagar, Bangalore","name":"Empire Restaurant","online_order":"Yes","book_table":"No","rate":"4.4/5","votes":4884,"phone":"080 49653266","location":"Jayanagar","rest_type":"Casual Dining","dish_liked":"Chicken Tikka Masala, Mutton Keema Dosa, Mutton Biryani, Raan Biryani, Brain Fry, Chicken Grill, Ghee Rice","cuisines":"North Indian, Mughlai, South Indian, Chinese","approx_costfor_two_people":750,"listed_intype":"Delivery","listed_incity":"Banashankari"},{"address":"556/A, Water Tank Road, 3rd Stage, Banashankari, Bangalore","name":"Maruthi Davangere Benne Dosa","online_order":"Yes","book_table":"No","rate":"4.0/5","votes":17,"phone":"+91 9019563485","location":"Banashankari","rest_type":"Quick Bites","dish_liked":null,"cuisines":"South Indian","approx_costfor_two_people":150,"listed_intype":"Delivery","listed_incity":"Banashankari"},{"address":"39, 3rd Main,4th Cross, Hanumanth Nagar, Near, Basavanagudi, Bangalore","name":"Chaatimes","online_order":"Yes","book_table":"No","rate":"3.8/5","votes":133,"phone":"+91 8884232233","location":"Basavanagudi","rest_type":"Quick Bites","dish_liked":"Dabeli, Faluda, Masala Poori, Sandwiches, Tokri Chaat, Pav Bhaji, Dahipuri","cuisines":"Street Food, Fast Food","approx_costfor_two_people":200,"listed_intype":"Delivery","listed_incity":"Banashankari"},{"address":"Opp Vinayaka hospital, Near Seetha Circle , 80 Feet Road, Banashankari, Bangalore","name":"Havyaka Mess","online_order":"No","book_table":"No","rate":"3.9/5","votes":28,"phone":"+91 9243195843\n+91 9243404670","location":"Banashankari","rest_type":"Mess","dish_liked":null,"cuisines":"South Indian","approx_costfor_two_people":300,"listed_intype":"Delivery","listed_incity":"Banashankari"},{"address":"2466, Bhaskar Grand Tower, 24th Cross, Opposite BDA Complex, Banashankari, Bangalore","name":"McDonald's","online_order":"Yes","book_table":"No","rate":"3.9/5","votes":286,"phone":"080 66000666\n080 42005285","location":"Banashankari","rest_type":"Quick Bites","dish_liked":"Burgers, Fries, Hot Chocolate","cuisines":"Burger, Fast Food","approx_costfor_two_people":500,"listed_intype":"Delivery","listed_incity":"Banashankari"},{"address":"645, 1st Floor, 24th Cross, 24th Main, 2nd Stage, Banashankari, Bangalore","name":"Domino's Pizza","online_order":"Yes","book_table":"No","rate":"3.9/5","votes":540,"phone":"080 26710070\n18602100000","location":"Banashankari","rest_type":"Quick Bites","dish_liked":"Pane Pizza, Lava Cake, Pasta, Stuffed Garlic Bread, Chocolava Cake, Tacos","cuisines":"Pizza, Fast Food","approx_costfor_two_people":800,"listed_intype":"Delivery","listed_incity":"Banashankari"},{"address":"2469, 3rd Floor, 24th Cross, Opposite BDA Complex, 2nd Stage, Banashankari, Bangalore","name":"Onesta","online_order":"Yes","book_table":"Yes","rate":"4.6/5","votes":2556,"phone":"080 48653961\n080 48655715","location":"Banashankari","rest_type":"Casual Dining, Cafe","dish_liked":"Farmhouse Pizza, Chocolate Banana, Virgin Mojito, Pasta, Paneer Tikka, Lime Soda, Prawn Pizza","cuisines":"Pizza, Cafe, Italian","approx_costfor_two_people":600,"listed_intype":"Delivery","listed_incity":"Banashankari"}]